,city,country,latitude,longitude,temperature,humidity,cloudy,wind speed,date
0,Jucás,BR,-6.53,-39.53,72.39,57,1,3.6,1595898444
1,Broome,US,42.25,-75.83,75.15,83,1,5.82,1595898445
2,Cockburn Town,TC,21.46,-71.14,82.51,76,2,18.61,1595898267
3,Tasiilaq,GL,65.61,-37.64,42.8,87,65,3.36,1595898446
4,Busselton,AU,-33.65,115.33,52.07,98,96,9.78,1595898446
5,Ostrovnoy,RU,68.05,39.51,55.13,89,0,0.6,1595898447
6,Bethel,US,41.37,-73.41,80.65,65,1,8.23,1595898447
7,Chokurdakh,RU,70.63,147.92,47.95,58,100,2.98,1595898447
8,Puerto Ayora,EC,-0.74,-90.35,66.0,97,75,1.01,1595898448
9,Avera,US,33.19,-82.53,82.63,62,40,8.32,1595898448
10,Yangi Marg`ilon,UZ,40.43,71.72,73.4,56,43,6.93,1595898449
11,Hermanus,ZA,-34.42,19.23,43.0,92,0,5.79,1595898449
12,Mineiros,BR,-17.57,-52.55,67.26,48,0,5.08,1595898450
13,Ust'-Koksa,RU,50.27,85.61,56.55,78,33,0.87,1595898450
14,São Félix do Xingu,BR,-6.64,-51.99,72.63,51,0,1.21,1595898450
15,Jamestown,US,42.1,-79.24,73.56,94,40,10.29,1595898394
16,Salalah,OM,17.02,54.09,78.8,100,75,5.82,1595898451
17,Pontianak,ID,-0.03,109.33,79.72,82,40,5.39,1595898304
18,Barrow,US,71.29,-156.79,39.2,80,90,26.4,1595898451
19,Kasempa,ZM,-13.46,25.83,51.58,64,0,7.74,1595898451
20,New Norfolk,AU,-42.78,147.06,46.2,92,49,2.95,1595898451
21,Margate,GB,51.38,1.39,62.67,91,77,4.0,1595898452
22,Qaanaaq,GL,77.48,-69.36,43.77,62,0,1.97,1595898452
23,Atuona,PF,-9.8,-139.03,79.72,69,0,25.37,1595898452
24,Kimbe,PG,-5.55,150.14,89.31,56,70,2.68,1595898452
25,Jalu,LY,29.03,21.55,76.93,50,0,10.74,1595898453
26,Tuktoyaktuk,CA,69.45,-133.04,64.4,68,75,17.22,1595898453
27,Arraial do Cabo,BR,-22.97,-42.03,71.73,81,0,24.27,1595898253
28,Bluff,NZ,-46.6,168.33,46.0,84,100,1.01,1595898453
29,Balclutha,NZ,-46.23,169.75,48.0,71,100,4.0,1595898454
30,Lebu,CL,-37.62,-73.65,45.18,75,0,12.44,1595898454
31,San Quintín,MX,30.48,-115.95,70.2,75,0,16.4,1595898454
32,Ushuaia,AR,-54.8,-68.3,33.8,80,40,26.4,1595898437
33,Rikitea,PF,-23.12,-134.97,72.09,81,77,13.24,1595898455
34,Mossamedes,AO,-15.2,12.15,65.32,71,0,3.67,1595898455
35,Khatanga,RU,71.97,102.5,52.36,58,0,5.7,1595898455
36,Bahía Blanca,AR,-38.72,-62.27,39.16,70,0,7.36,1595898455
37,Lima,PE,-12.04,-77.03,59.0,87,90,9.17,1595898456
38,Deputatsky,RU,69.3,139.9,46.56,69,99,5.37,1595898456
39,Port Elizabeth,ZA,-33.92,25.57,48.2,87,0,2.24,1595898456
40,Mehamn,NO,71.04,27.85,60.26,69,0,9.51,1595898456
41,Lata,PT,40.16,-8.33,66.67,99,100,1.99,1595898457
42,Punta Arenas,CL,-53.15,-70.92,34.25,47,35,14.99,1595898333
43,Kasongo-Lunda,CD,-6.47,16.82,65.35,42,0,0.76,1595898457
44,Khovd,MN,48.01,91.64,60.37,68,100,0.87,1595898457
45,Esperance,AU,-33.87,121.9,53.6,93,47,11.41,1595898382
46,Paracuru,BR,-3.41,-39.03,80.01,75,0,18.99,1595898458
47,Karad,IN,17.28,74.2,71.53,91,100,3.58,1595898458
48,Dzaoudzi,YT,-12.79,45.27,69.8,88,90,19.46,1595898254
49,Moroni,KM,-11.7,43.26,71.31,78,61,16.42,1595898459
50,Laas,IT,46.62,10.7,59.0,100,5,1.74,1595898459
51,Kitimat,CA,54.05,-128.65,68.0,69,70,3.0,1595898460
52,Kavieng,PG,-2.57,150.8,84.0,73,36,10.18,1595898460
53,Mersin Province,TR,36.86,34.65,78.8,100,20,4.68,1595898451
54,Gushikawa,JP,26.35,127.87,85.82,79,20,12.75,1595898461
55,Bredasdorp,ZA,-34.53,20.04,37.4,93,0,1.41,1595898461
56,Berlevåg,NO,70.86,29.09,59.34,72,0,8.23,1595898184
57,Emerald,AU,-23.53,148.17,63.68,33,0,9.17,1595898462
58,Zapopan,MX,20.72,-103.4,69.69,85,100,5.01,1595898367
59,Ambon City,ID,-3.7,128.18,80.6,83,75,4.7,1595898462
60,Arrondissement de Bastia,FR,42.67,9.33,70.39,88,0,3.36,1595898463
61,Vardø,NO,70.37,31.11,55.4,82,0,5.82,1595898463
62,Florø,NO,61.6,5.03,59.0,87,100,4.7,1595898463
63,Kapaa,US,22.08,-159.32,82.36,70,20,23.04,1595898463
64,Ponta do Sol,PT,32.67,-17.1,66.11,64,20,16.11,1595898464
65,Nome,US,64.5,-165.41,51.01,87,90,17.22,1595898464
66,Meulaboh,ID,4.14,96.13,73.99,97,100,3.18,1595898464
67,East London,ZA,-33.02,27.91,55.69,73,0,8.46,1595898206
68,São Filipe,CV,14.9,-24.5,75.78,76,100,6.04,1595898465
69,Longyearbyen,SJ,78.22,15.64,64.4,55,99,5.82,1595898183
70,Hilo,US,19.73,-155.09,78.46,58,75,6.93,1595898263
71,Catalina,US,32.51,-110.92,89.44,38,69,5.01,1595898417
72,San Ignacio,BZ,17.16,-89.07,79.38,94,40,4.7,1595898467
73,Luangwa,ZM,-15.62,30.42,63.1,61,10,6.8,1595898467
74,Shahrud,IR,36.42,54.98,71.85,52,0,4.68,1595898468
75,Belmonte,BR,-15.86,-38.88,71.6,78,20,2.24,1595898468
76,Vaini,TO,-21.2,-175.2,73.4,88,75,13.87,1595898468
77,Aykhal,RU,66.0,111.5,44.6,81,90,4.47,1595898469
78,Hithadhoo,MV,-0.6,73.08,81.91,79,100,10.87,1595898469
79,Albany,US,42.6,-73.97,87.13,70,5,5.37,1595898393
80,Kruisfontein,ZA,-34.0,24.73,49.41,60,0,6.42,1595898469
81,Peterhead,GB,57.51,-1.8,51.93,87,100,16.11,1595898470
82,Cape Town,ZA,-33.93,18.42,54.64,93,0,3.36,1595898471
83,Fredericton,CA,45.95,-66.67,75.42,88,90,8.05,1595898471
84,Ternate,ID,0.8,127.4,81.95,74,99,4.59,1595898472
85,Saint-Philippe,RE,-21.36,55.77,60.69,88,97,3.36,1595898472
86,Betong,TH,5.77,101.07,72.73,93,100,3.18,1595898473
87,Pevek,RU,69.7,170.31,35.29,86,0,10.74,1595898473
88,Yellowknife,CA,62.46,-114.35,62.6,93,75,11.41,1595898474
89,Homer,US,59.64,-151.55,61.21,67,1,16.11,1595898474
90,Husavik,IS,66.04,-17.34,48.2,66,90,6.93,1595898475
91,Southbridge,US,42.08,-72.03,82.11,58,30,5.64,1595898325
92,Sørland,NO,67.67,12.69,54.75,90,100,6.64,1595898476
93,Geraldton,AU,-28.77,114.6,60.8,93,90,10.29,1595898477
94,Port Lincoln,AU,-34.73,135.87,53.44,66,100,9.69,1595898478
95,Easley,US,34.83,-82.6,80.53,78,1,4.85,1595898478
96,San Policarpo,PH,12.18,125.51,81.0,79,100,6.87,1595898478
97,Altoona,US,40.52,-78.39,80.91,63,0,1.01,1595898402
98,Mataura,NZ,-46.19,168.86,46.0,84,100,1.01,1595898479
99,Marawi,PH,8.0,124.29,81.0,81,72,5.01,1595898479
100,Makkah al Mukarramah,SA,21.43,39.83,85.01,64,85,12.88,1595898408
101,Bathsheba,BB,13.22,-59.52,82.4,78,20,14.99,1595898480
102,Gambēla,ET,8.25,34.58,68.4,89,95,2.89,1595898480
103,Hasaki,JP,35.73,140.83,84.07,79,75,12.75,1595898480
104,Caravelas,BR,-17.71,-39.25,69.57,81,0,4.34,1595898480
105,Grootfontein,NA,-19.57,18.12,39.97,67,0,4.34,1595898481
106,Dhidhdhoo,MV,6.88,73.1,82.04,79,100,13.11,1595898481
107,Kayerkan,RU,69.35,87.76,57.2,47,2,8.95,1595898482
108,Marion,US,39.77,-86.16,73.17,94,90,3.36,1595898191
109,Guerrero Negro,MX,27.98,-114.06,71.17,74,0,21.72,1595898482
110,Sinnamary,GF,5.38,-52.95,78.94,80,98,1.12,1595898484
111,Ipixuna,BR,-1.76,-48.8,78.8,69,0,10.29,1595898485
112,Severo-Kuril'sk,RU,50.68,156.12,55.27,82,45,17.07,1595898485
113,Ribeira Grande,PT,38.52,-28.7,73.67,89,8,4.59,1595898486
114,South Venice,US,27.05,-82.42,85.75,79,1,5.06,1595898486
115,Tsimmerbude,RU,54.67,20.13,55.4,93,75,6.89,1595898486
116,Otradnoye,RU,59.78,30.82,57.38,82,4,2.24,1595898487
117,Castro,BR,-24.79,-50.01,58.86,75,100,2.95,1595898487
118,Avarua,CK,-21.21,-159.78,73.4,73,3,6.93,1595898446
119,Okato,NZ,-39.2,173.88,52.97,66,100,10.0,1595898489
120,Tiksi,RU,71.69,128.87,39.13,87,100,17.49,1595898489
121,Hualmay,PE,-11.1,-77.61,59.81,84,67,9.04,1595898490
122,Kiunga,PG,-6.12,141.29,74.97,98,100,2.98,1595898490
123,Norman Wells,CA,65.28,-126.83,68.0,52,75,11.41,1595898491
124,Fortuna,US,40.6,-124.16,62.56,71,84,1.99,1595898491
125,Hobart,AU,-42.88,147.33,49.39,93,75,5.82,1595898268
126,Dunedin,NZ,-45.87,170.5,48.99,68,100,3.0,1595898431
127,Nanchang,CN,28.68,115.88,81.39,85,88,4.9,1595898492
128,Grindavik,IS,63.84,-22.43,46.4,87,75,12.75,1595898492
129,Saldanha,ZA,-33.01,17.94,46.4,70,0,5.82,1595898492
130,Bodden Town,KY,19.28,-81.25,84.94,84,20,11.41,1595898493
131,Yaoundé,CM,3.87,11.52,69.8,100,75,3.36,1595898493
132,Upernavik,GL,72.79,-56.15,44.4,86,85,5.57,1595898493
133,Luanda,AO,-8.84,13.23,69.8,94,65,3.36,1595898267
134,Merauke,ID,-8.47,140.33,79.88,76,68,16.35,1595898494
135,Yar-Sale,RU,66.83,70.83,50.7,68,83,14.34,1595898494
136,Klaksvík,FO,62.23,-6.59,46.4,93,100,13.87,1595898494
137,Mastic Beach,US,40.77,-72.85,81.46,69,1,5.82,1595898392
138,Mar del Plata,AR,-38.0,-57.56,42.04,86,75,9.17,1595898422
139,Fort Nelson,CA,58.81,-122.7,62.6,67,75,3.36,1595898495
140,Chui,UY,-33.7,-53.46,48.27,73,100,7.11,1595898495
141,Burgeo,CA,47.62,-57.62,59.94,88,0,3.83,1595898495
142,Fujin,CN,47.26,132.03,79.83,69,0,4.14,1595898496
143,Westerland,DE,54.91,8.3,62.6,93,83,17.22,1595898496
144,Thompson,CA,55.74,-97.86,60.8,77,75,9.17,1595898496
145,Nishihara,JP,26.18,127.76,86.23,83,40,11.41,1595898496
146,Outjo,NA,-20.12,16.15,51.57,43,0,10.07,1595898496
147,Kabanjahe,ID,3.1,98.49,77.0,100,40,5.82,1595898497
148,Madang,PG,-5.22,145.8,86.07,64,1,3.38,1595898497
149,Fengcheng,CN,40.45,124.07,76.28,78,78,3.51,1595898497
150,Port Hawkesbury,CA,45.62,-61.35,63.25,100,75,5.82,1595898497
151,Araouane,ML,18.9,-3.53,89.44,48,100,15.84,1595898498
152,Mogadishu,SO,2.04,45.34,77.56,85,89,22.48,1595898498
153,Kloulklubed,PW,7.04,134.26,82.4,78,90,5.82,1595898498
154,Kutum,SD,14.2,24.67,72.27,74,0,14.03,1595898498
155,Palekastro,GR,35.2,26.25,82.99,40,0,15.99,1595898499
156,Dryden,CA,49.78,-92.75,62.6,82,75,7.4,1595898499
157,Progreso,MX,21.28,-89.67,87.91,62,20,11.41,1595898499
158,Flinders,AU,-34.58,150.86,60.75,88,98,7.0,1595898499
159,Khasan,RU,42.43,130.64,65.84,94,100,6.64,1595898499
160,Saint Paul Harbor,US,57.79,-152.41,62.6,67,75,5.82,1595898500
161,Bafra,TR,41.57,35.91,68.0,82,75,4.7,1595898500
162,San Patricio,MX,19.22,-104.7,86.0,74,40,9.17,1595898500
163,Samarai,PG,-10.62,150.67,80.08,87,100,9.93,1595898500
164,Hawera,NZ,-39.59,174.28,54.0,83,100,4.0,1595898501
165,Bar Harbor,US,44.39,-68.2,71.6,88,40,8.05,1595898501
166,Karabulak,RU,43.3,44.9,62.31,93,0,4.47,1595898501
167,Bilibino,RU,68.05,166.44,57.33,45,58,8.77,1595898501
168,Road Town,VG,18.42,-64.62,81.34,97,0,7.0,1595898501
169,Banda Aceh,ID,5.56,95.32,79.75,82,100,15.97,1595898502
170,La Asuncion,VE,11.03,-63.86,82.4,83,38,9.17,1595898502
171,Soyo,AO,-6.13,12.37,72.57,84,69,6.6,1595898502
172,Puerto Madryn,AR,-42.77,-65.04,41.95,65,0,16.78,1595898478
173,Carnarvon,AU,-24.87,113.63,59.0,72,0,12.75,1595898503
174,Fukuechō,JP,32.69,128.84,82.4,94,75,11.41,1595898503
175,Touros,BR,-5.2,-35.46,71.6,94,20,3.36,1595898503
176,Cabo San Lucas,MX,22.89,-109.91,85.03,69,75,17.22,1595898503
177,Hofn,IS,64.25,-15.21,52.29,68,100,10.65,1595898504
178,Srednekolymsk,RU,67.45,153.68,58.39,57,82,15.55,1595898504
179,Muriwai Beach,NZ,-36.82,174.45,60.35,73,92,4.0,1595898504
180,Saskylakh,RU,71.92,114.08,52.77,63,43,12.03,1595898504
181,Ouadda,CF,8.08,22.4,66.7,95,100,3.0,1595898506
182,Sistranda,NO,63.73,8.83,62.6,63,99,14.99,1595898506
183,Ahipara,NZ,-35.17,173.17,60.3,65,75,10.54,1595898506
184,Butaritari,KI,3.07,172.79,83.23,79,100,11.05,1595898506
185,Pisco,PE,-13.7,-76.22,60.46,82,20,12.75,1595898508
186,Dudinka,RU,69.41,86.18,57.2,47,21,8.95,1595898509
187,Kirakira,SB,-10.45,161.92,85.3,71,92,10.22,1595898509
188,Anloga,GH,5.79,0.9,77.0,83,40,12.75,1595898509
189,Coyhaique,CL,-45.58,-72.07,37.4,74,20,3.36,1595898509
190,Clyde River,CA,70.47,-68.59,41.0,100,90,12.75,1595898511
191,Ancud,CL,-41.87,-73.82,39.58,100,50,1.12,1595898511
192,Broken Hill,AU,-31.95,141.43,46.4,70,0,16.11,1595898511
193,Laem Sing,TH,12.48,102.07,84.0,92,73,3.4,1595898512
194,Alofi,NU,-19.06,-169.92,78.8,61,40,17.22,1595898513
195,Pangnirtung,CA,66.15,-65.71,59.31,47,100,9.42,1595898513
196,Visnes,NO,59.36,5.22,59.29,87,100,18.34,1595898513
197,Lavrentiya,RU,65.58,-171.0,48.9,80,88,14.94,1595898513
198,Qasigiannguit,GL,68.82,-51.19,42.8,87,100,3.36,1595898513
199,Mīzan Teferī,ET,6.98,35.58,61.5,82,98,1.66,1595898514
200,Abu Samrah,SY,35.3,37.18,78.6,49,0,3.67,1595898514
201,Nikolskoye,RU,59.7,30.79,57.4,82,19,2.24,1595898514
202,Lyubinskiy,RU,55.15,72.69,59.0,72,0,2.24,1595898515
203,Petropavlovsk-Kamchatskiy,RU,53.05,158.65,75.2,53,69,4.47,1595898515
204,Alta Floresta,BR,-9.88,-56.09,73.69,40,0,3.33,1595898519
205,Mount Isa,AU,-20.73,139.5,66.2,27,0,16.11,1595898520
206,Beitbridge,ZW,-22.22,30.0,56.01,86,93,14.03,1595898521
207,Dali,CN,25.7,100.18,69.01,61,98,1.59,1595898522
208,Dehui,CN,44.53,125.7,73.4,83,40,4.47,1595898523
209,Westport,US,41.14,-73.36,84.15,69,1,5.82,1595898315
210,Provideniya,RU,64.38,-173.3,51.8,93,90,6.71,1595898524
211,Mae Sot,TH,16.72,98.57,77.45,89,100,1.28,1595898525
212,Saint Anthony,US,45.02,-93.22,79.25,42,1,12.75,1595898525
213,Lhokseumawe,ID,5.18,97.15,78.49,82,100,3.33,1595898525
214,Narsaq,GL,60.92,-46.05,50.0,81,75,4.7,1595898526
215,Pundaguitan,PH,6.37,126.17,83.35,71,80,7.54,1595898526
216,Codrington,AU,-38.27,141.97,54.19,75,1,4.79,1595898526
217,Lagoa,PT,39.05,-27.98,73.13,89,0,5.53,1595898526
218,George Town,MY,5.41,100.34,79.34,94,20,3.36,1595898526
219,Kumul,CN,42.8,93.45,84.99,23,70,13.85,1595898527
220,Ordzhonīkīdze,KZ,52.44,61.74,53.85,90,0,10.04,1595898527
221,Dingle,PH,11.0,122.67,81.3,83,100,3.91,1595898527
222,Atasū,KZ,48.68,71.64,66.29,59,50,4.94,1595898527
223,Nanortalik,GL,60.14,-45.24,45.66,95,100,4.54,1595898527
224,Lesnyye Polyany,RU,55.97,37.87,61.34,93,0,2.24,1595898528
225,Rawson,AR,-43.3,-65.1,41.94,64,0,17.74,1595898403
226,Kismayo,SO,-0.36,42.55,77.5,82,92,20.74,1595898528
227,Methóni,GR,36.82,21.7,75.11,73,0,6.2,1595898528
228,Bilma,NE,18.69,12.92,88.21,47,5,13.18,1595898528
229,Olafsvik,IS,64.89,-23.71,48.0,75,50,6.91,1595898529
230,Leningradskiy,RU,69.38,178.42,38.08,76,22,13.42,1595898529
231,Laramie,US,41.31,-105.59,77.09,27,40,16.11,1595898529
232,Oranjemund,NA,-28.55,16.43,57.51,76,0,4.83,1595898530
233,Ağdaş,AZ,40.65,47.48,71.6,73,40,4.7,1595898530
234,Vila Franca do Campo,PT,37.72,-25.43,69.8,94,20,3.36,1595898530
235,Reconquista,AR,-29.15,-59.65,53.98,77,17,10.87,1595898530
236,Cidreira,BR,-30.18,-50.21,60.67,97,85,2.15,1595898531
237,Bandarbeyla,SO,9.49,50.81,79.16,72,0,21.81,1595898531
238,Lüderitz,NA,-26.65,15.16,55.4,87,0,1.12,1595898531
239,Camabatela,AO,-8.19,15.38,55.54,97,0,2.91,1595898531
240,Muros,ES,42.78,-9.06,70.0,85,23,3.53,1595898531
241,Morgan City,US,29.7,-91.21,78.55,88,75,3.36,1595898532
242,Makakilo City,US,21.35,-158.09,86.88,49,40,12.75,1595898532
243,Chegdomyn,RU,51.12,133.02,83.77,53,0,2.24,1595898532
244,Kaitangata,NZ,-46.28,169.85,48.0,71,100,5.99,1595898532
245,Mihălăşeni,RO,47.88,27.07,61.34,87,7,6.93,1595898532
246,Bud,US,39.45,-86.18,73.0,98,100,6.62,1595898533
247,Thai Nguyen,VN,21.59,105.84,80.6,83,75,6.93,1595898533
248,Hjelset,NO,62.78,7.48,60.8,72,30,11.41,1595898533
249,Hwange,ZW,-18.37,26.5,50.11,60,0,4.29,1595898534
250,Bambous Virieux,MU,-20.34,57.76,66.58,88,40,3.36,1595898534
251,Qaqortoq,GL,60.72,-46.03,50.0,81,75,4.7,1595898534
252,Campamento,HN,14.55,-86.65,70.92,88,100,2.73,1595898535
253,Torbay,CA,47.67,-52.73,57.38,100,90,5.82,1595898535
254,Port Alfred,ZA,-33.59,26.89,54.45,74,0,8.5,1595898536
255,Atar,MR,20.52,-13.05,92.57,36,1,9.64,1595898536
256,Sur,OM,22.57,59.53,86.22,66,0,10.8,1595898536
257,Kisarazu,JP,35.37,139.92,84.43,88,75,27.51,1595898537
258,Poum,NC,-20.23,164.02,74.8,78,99,19.37,1595898537
259,Kununurra,AU,-15.77,128.73,73.4,20,0,20.8,1595898538
260,Gaoua,BF,10.3,-3.25,73.02,89,0,6.64,1595898538
261,Katsuura,JP,35.13,140.3,81.9,88,75,27.51,1595898539
262,Sobolevo,RU,54.43,31.9,61.92,94,95,5.99,1595898539
263,Baiquan,CN,47.58,126.08,80.74,58,0,10.96,1595898539
264,Zeya,RU,53.75,127.27,81.12,61,0,6.42,1595898540
265,Mareeba,AU,-17.0,145.43,75.83,53,5,8.05,1595898540
266,Dukat,RU,62.55,155.55,74.93,39,4,13.58,1595898540
267,Cherskiy,RU,68.75,161.3,49.06,49,52,9.98,1595898540
268,Pierre,US,44.37,-100.35,87.8,29,1,14.99,1595898438
269,Paamiut,GL,61.99,-49.67,46.58,84,100,1.23,1595898541
270,Udimskiy,RU,61.14,45.91,56.88,89,8,2.46,1595898541
271,Yanam,IN,16.73,82.22,81.72,79,98,3.06,1595898542
272,Yārāda,IN,17.65,83.27,78.8,94,40,0.63,1595898543
273,Zhangaözen,KZ,43.3,52.8,74.28,24,0,13.85,1595898544
274,Lorengau,PG,-2.02,147.27,83.1,73,53,2.19,1595898544
275,Naryan-Mar,RU,67.67,53.09,52.11,78,100,6.51,1595898544
276,El Alto,PE,-4.27,-81.21,62.02,85,0,16.37,1595898545
277,Linxia Chengguanzhen,CN,35.6,103.21,69.76,51,26,2.57,1595898545
278,Namatanai,PG,-3.67,152.43,85.68,65,8,5.84,1595898545
279,Kamensk-Ural'skiy,RU,56.42,61.93,52.52,93,0,7.65,1595898546
280,Dwārka,IN,22.24,68.97,84.54,78,3,16.15,1595898546
281,Santa Rosa,PH,14.31,121.11,81.1,83,100,0.54,1595898546
282,Dakar,SN,14.69,-17.44,82.4,78,20,4.7,1595898547
283,Beyneu,KZ,45.32,55.2,68.2,33,0,8.43,1595898548
284,Yarmouth,US,41.71,-70.23,79.39,74,1,12.75,1595898549
285,Faanui,PF,-16.48,-151.75,79.07,80,100,14.43,1595898550
286,Hambantota,LK,6.12,81.12,77.0,100,90,3.36,1595898551
287,Daru,PG,-9.08,143.21,78.31,87,75,13.85,1595898552
288,Talcahuano,CL,-36.72,-73.12,46.4,65,0,9.17,1595898552
289,Aswān,EG,24.09,32.91,88.88,16,16,8.01,1595898399
290,Fairlie,GB,55.76,-4.86,52.61,86,94,11.01,1595898553
291,Grand-Santi,GF,4.25,-54.38,74.25,94,100,0.81,1595898553
292,Taormina,IT,37.85,15.29,74.68,46,0,5.64,1595898554
293,Maragogi,BR,-9.01,-35.22,74.39,78,25,11.14,1595898534
294,Mahajanga,MG,-15.72,46.32,71.37,72,100,4.65,1595898554
295,Hobyo,SO,5.35,48.53,79.5,74,13,22.28,1595898555
296,Hamilton,US,39.18,-84.53,71.6,94,1,9.26,1595898555
297,Ust'-Kut,RU,56.79,105.77,70.27,61,46,5.35,1595898556
298,Manzhouli,CN,49.6,117.43,70.72,66,100,15.21,1595898556
299,Aklavik,CA,68.22,-135.01,69.8,40,75,8.05,1595898556
300,Cepu,ID,-7.15,111.59,77.92,68,0,7.87,1595898556
301,Mae Sai,TH,20.43,99.88,75.06,91,100,0.98,1595898557
302,Buala,SB,-8.14,159.59,84.97,73,41,8.84,1595898557
303,Faya,SA,18.39,42.45,63.5,93,40,4.7,1595898557
304,Havelock,US,34.88,-76.9,83.19,79,1,5.01,1595898463
305,Fairbanks,US,64.84,-147.72,56.19,87,90,8.05,1595898558
306,Zhigansk,RU,66.77,123.37,52.16,69,34,15.35,1595898558
307,Sept-Îles,CA,50.2,-66.38,62.53,100,75,4.09,1595898558
308,Lingyuan,CN,41.24,119.4,77.11,62,57,8.93,1595898559
309,Amahai,ID,-3.33,128.92,79.45,81,100,8.63,1595898559
310,Talnakh,RU,69.49,88.4,57.2,47,0,8.95,1595898559
311,Seoul,KR,37.57,126.98,75.72,83,40,4.21,1595898327
312,São Francisco,BR,-15.95,-44.86,72.59,57,97,4.25,1595898560
313,Saint George,US,37.1,-113.58,100.98,13,1,10.29,1595898440
314,Liliani,PK,32.21,72.95,92.73,42,0,4.94,1595898560
315,Bojnourd,IR,37.47,57.33,73.4,78,20,6.93,1595898561
316,Kiryat Gat,IL,31.61,34.76,75.99,89,0,1.01,1595898561
317,Buriti,BR,-22.93,-45.39,71.6,56,0,6.93,1595898561
318,Domoni,KM,-12.26,44.53,70.7,78,99,14.79,1595898562
319,Dodge City,US,37.75,-100.02,75.4,83,90,4.7,1595898562
320,Los Llanos de Aridane,ES,28.66,-17.92,73.4,73,90,16.11,1595898562
321,Minot,US,48.23,-101.3,76.93,44,1,5.82,1595898564
322,La Ciotat,FR,43.17,5.6,71.65,74,0,1.99,1595898564
323,Tuatapere,NZ,-46.13,167.68,46.0,84,100,1.01,1595898564
324,Airai,TL,-8.93,125.41,65.16,60,100,4.12,1595898564
325,Gubkinskiy,RU,64.43,76.5,54.9,65,100,14.2,1595898565
326,Torbat-e Jām,IR,35.24,60.62,76.75,22,0,11.59,1595898566
327,Nouadhibou,MR,20.93,-17.03,75.2,78,0,3.36,1595898566
328,Khāsh,IR,28.22,61.22,66.9,54,93,1.59,1595898568
329,Actopan,MX,20.27,-98.93,65.41,78,100,1.99,1595898284
330,Seara,PT,41.18,-7.8,65.17,89,7,2.8,1595898570
331,Borovoy,RU,55.43,86.08,57.2,100,20,2.84,1595898570
332,Xining,CN,36.62,101.77,61.32,60,22,2.98,1595898571
333,Clifton,US,40.86,-74.16,89.11,46,1,14.99,1595898380
334,Victor Harbor,AU,-35.57,138.62,53.01,76,100,2.44,1595898572
335,Bull Savanna,JM,17.89,-77.59,78.62,86,81,7.34,1595898572
336,Cururupu,BR,-1.83,-44.87,73.69,90,7,2.66,1595898572
337,Mirny,RU,62.54,113.96,53.6,62,100,17.9,1595898572
338,Kahului,US,20.89,-156.47,82.02,43,20,31.09,1595898573
339,Naze,JP,28.37,129.48,86.92,79,40,12.75,1595898573
340,Upington,ZA,-28.45,21.26,53.6,32,0,9.17,1595898573
341,Vila do Maio,CV,15.13,-23.22,78.8,74,75,5.82,1595898574
342,Ayan,RU,56.45,138.17,62.42,79,100,9.66,1595898574
343,Adrar,MR,20.5,-10.07,93.06,33,0,19.51,1595898561
344,Maltahöhe,NA,-24.83,16.98,44.13,52,0,6.62,1595898574
345,Honiara,SB,-9.43,159.95,87.8,70,40,11.41,1595898574
346,Beringovskiy,RU,63.05,179.32,65.77,58,0,7.87,1595898575
347,Wilmington,US,34.23,-77.94,84.81,62,1,10.29,1595898036
348,Limulunga,ZM,-15.1,23.14,51.57,48,0,6.62,1595898575
349,Saint-Pierre,RE,-21.34,55.48,61.47,88,79,3.36,1595898575
350,Gameleira,BR,-8.58,-35.39,68.47,92,8,3.94,1595898575
351,Opuwo,NA,-18.06,13.84,54.5,41,0,7.43,1595898576
352,Nuuk,GL,64.18,-51.72,44.6,93,100,12.75,1595898471
353,Marinette,US,45.1,-87.63,76.15,57,75,10.29,1595898462
354,Safakulevo,RU,54.99,62.54,53.49,93,69,7.34,1595898576
355,Rivadavia,AR,-33.19,-68.46,46.4,52,0,7.29,1595898576
356,Arman',RU,59.7,150.17,63.86,72,100,4.7,1595898577
357,Manadhoo,MV,5.77,73.38,81.46,78,41,11.41,1595898577
358,Megion,RU,61.03,76.11,51.8,81,40,4.47,1595898577
359,Omboué,GA,-1.57,9.26,73.9,84,97,6.87,1595898577
360,Omsukchan,RU,62.53,155.8,77.34,38,14,8.43,1595898578
361,Hibbing,US,47.43,-92.94,71.17,46,75,10.29,1595898579
362,Monrovia,LR,6.3,-10.8,75.2,94,75,3.36,1595898395
363,Mahébourg,MU,-20.41,57.7,66.2,88,40,3.36,1595898580
364,Port Blair,IN,11.67,92.75,82.87,78,100,10.65,1595898568
365,Leżajsk,PL,50.26,22.42,58.19,100,7,2.24,1595898580
366,Sergeevka,KZ,53.88,67.42,55.53,86,25,4.81,1595898581
367,Ilmajoki,FI,62.73,22.57,59.76,100,90,5.82,1595898581
368,Gisborne,NZ,-38.65,178.0,61.0,40,0,7.0,1595898582
369,Walvis Bay,NA,-22.96,14.51,62.28,31,0,4.7,1595898583
370,Sitka,US,57.05,-135.33,59.0,77,40,6.93,1595898584
371,Bereket,TM,39.24,55.52,88.39,42,0,11.72,1595898584
372,Ilulissat,GL,69.22,-51.1,42.8,87,97,3.36,1595898585
373,Port Augusta,AU,-32.5,137.77,47.75,87,78,3.24,1595898586
374,Uinskoye,RU,56.88,56.58,54.01,90,0,2.55,1595898586
375,Banjar,ID,-8.19,114.97,78.8,100,75,16.11,1595898587
376,Vestmanna,FO,62.16,-7.17,46.4,93,79,13.87,1595898587
377,Chapais,CA,49.78,-74.85,68.0,94,90,4.7,1595898540
378,Benguela,AO,-12.58,13.41,66.07,85,0,1.92,1595898588
379,Isangel,VU,-19.55,169.27,82.4,69,40,9.17,1595898589
380,Hong Kong,HK,22.29,114.16,86.68,70,100,8.01,1595898564
381,Calvinia,ZA,-31.47,19.78,51.53,43,0,7.18,1595898590
382,Santa Cruz de la Sierra,BO,-17.8,-63.17,71.6,83,0,9.17,1595898418
383,Río Cuarto,AR,-33.13,-64.35,42.8,48,100,5.82,1595898591
384,Sakakah,SA,29.97,40.21,91.4,17,0,8.05,1595898591
385,St. George's,GD,12.06,-61.75,82.4,83,20,9.78,1595898591
386,Agadez,NE,19.75,10.25,85.26,14,0,9.4,1595898592
387,Purwodadi Grobogan,ID,-7.09,110.92,77.0,69,20,5.82,1595898592
388,Sandpoint,US,48.28,-116.55,89.22,27,1,4.7,1595898471
389,Fruitvale,US,39.08,-108.5,88.25,25,1,11.41,1595898592
390,Les Cayes,HT,18.2,-73.75,79.66,82,4,2.98,1595898593
391,Östersund,SE,63.18,14.64,55.4,76,15,6.93,1595898593
392,Dikson,RU,73.51,80.55,40.32,82,52,13.0,1595898572
393,Chișinău,MD,47.01,28.86,68.0,77,0,2.24,1595898501
394,Maniitsoq,GL,65.42,-52.9,45.36,96,100,15.61,1595898594
395,Lishu,CN,43.3,124.33,76.37,81,33,7.96,1595898594
396,Ulladulla,AU,-35.35,150.47,55.71,100,75,17.22,1595898594
397,Synevyr,UA,48.49,23.63,59.86,96,4,1.54,1595898595
398,Sudzha,RU,51.2,35.27,62.28,73,100,7.47,1595898595
399,Vestmannaeyjar,IS,63.44,-20.27,50.74,76,0,20.74,1595898596
400,Itápolis,BR,-21.6,-48.81,69.49,61,15,8.1,1595898573
401,Najrān,SA,17.49,44.13,75.2,73,40,4.7,1595898381
402,Feldbach,AT,46.95,15.89,64.11,93,0,1.12,1595898598
403,Kintampo,GH,8.06,-1.73,69.28,96,100,5.77,1595898598
404,Evensk,RU,61.95,159.23,54.86,85,96,8.84,1595898599
405,Manicoré,BR,-5.81,-61.3,80.62,56,72,0.49,1595898526
406,Riyadh,SA,24.69,46.72,91.4,21,0,4.7,1595898330
407,Labuhan,ID,-6.88,112.21,78.19,73,96,11.36,1595898599
408,Provincia di Lecce,IT,40.22,18.17,71.51,94,5,2.24,1595898600
409,Sabang,ID,5.89,95.32,81.64,78,100,22.88,1595898600
410,Turka,UA,49.15,23.03,55.89,90,56,8.01,1595898600
411,Ocós,GT,14.51,-92.19,77.99,100,75,5.82,1595898600
412,Tura,IN,25.52,90.22,74.79,96,100,3.78,1595898572
413,Leshukonskoye,RU,64.9,45.76,57.04,93,6,2.98,1595898601
414,Griffith,US,41.53,-87.42,78.53,61,75,5.82,1595898601
415,Udachny,RU,66.42,112.4,44.6,81,90,4.47,1595898601
416,Talara,PE,-4.58,-81.27,62.69,85,0,15.39,1595898602
417,Yantal',RU,56.85,105.25,67.14,70,61,6.51,1595898603
418,Bunia,CD,1.57,30.25,61.14,90,0,2.13,1595898603
419,Santo Amaro da Imperatriz,BR,-27.69,-48.78,66.2,88,89,9.17,1595898604
420,Souillac,MU,-20.52,57.52,66.2,88,40,3.36,1595898604
421,Salinópolis,BR,-0.61,-47.36,79.47,83,41,11.74,1595898605
422,Lumeje,AO,-11.55,20.78,52.39,49,0,4.99,1595898605
423,Bengkulu,ID,-3.8,102.27,77.27,74,100,4.85,1595898606
424,Noumea,NC,-22.28,166.46,79.0,54,75,5.82,1595898606
425,Romitan,UZ,39.93,64.38,77.0,36,0,6.93,1595898606
426,Lodja,CD,-3.48,23.43,69.87,60,0,1.28,1595898607
427,Brufut,GM,13.38,-16.75,77.0,100,75,4.7,1595898607
428,Tautira,PF,-17.73,-149.15,82.4,69,40,12.75,1595898607
429,Kautokeino,NO,69.01,23.04,52.84,85,98,10.22,1595898608
430,Ballina,AU,-28.87,153.57,64.27,48,22,12.75,1595898608
431,Diffa,NE,13.32,12.61,81.97,58,52,5.5,1595898608
432,Kommunisticheskiy,RU,61.68,64.48,50.86,72,98,2.26,1595898609
433,Caconda,AO,-13.73,15.07,48.07,63,0,0.47,1595898609
434,Trogir,HR,43.51,16.25,69.89,68,0,3.36,1595898609
435,Morón,AR,-34.65,-58.62,43.7,50,100,8.05,1595898609
436,Salisbury,GB,51.07,-1.8,54.07,87,0,8.05,1595898399
437,Severobaykal'sk,RU,55.65,109.32,55.85,91,100,2.93,1595898610
438,Usinsk,RU,65.99,57.53,52.41,76,93,12.19,1595898610
439,Cayenne,GF,4.93,-52.33,77.0,100,64,7.25,1595898611
440,Sijunjung,ID,-0.69,100.95,73.02,78,100,1.23,1595898611
441,Novaya Mayna,RU,54.15,49.75,55.4,93,0,2.24,1595898611
442,Snezhnogorsk,RU,69.19,33.25,51.8,93,0,2.39,1595898611
443,La Paz,BO,-16.5,-68.15,37.4,16,0,4.7,1595898591
444,Lynn Haven,US,30.25,-85.65,80.1,83,40,5.82,1595898612
445,La Ronge,CA,55.1,-105.28,78.8,36,5,9.17,1595898612
446,Digras,IN,20.12,77.72,78.01,82,100,10.85,1595898612
447,Morondava,MG,-20.28,44.28,64.02,61,1,10.0,1595898612
448,Almaznyy,RU,48.04,40.05,75.2,41,20,13.42,1595898613
449,Rome,US,43.21,-75.46,78.78,69,1,4.7,1595898613
450,Alice Springs,AU,-23.7,133.88,55.4,50,0,6.93,1595898351
451,Raudeberg,NO,61.99,5.14,58.93,87,100,4.7,1595898614
452,Bubaque,GW,11.28,-15.83,79.7,84,100,17.16,1595898614
453,Ouésso,CG,1.61,16.05,69.76,90,51,2.53,1595898614
454,Hyères,FR,43.12,6.12,70.9,94,0,2.24,1595898544
455,Shizilu,CN,35.17,118.83,76.42,80,21,4.61,1595898614
456,Blagoyevo,RU,63.37,47.92,59.4,86,25,3.15,1595898615
457,Morant Bay,JM,17.88,-76.41,84.11,74,20,14.99,1595898615
458,Novaya Igirma,RU,57.13,103.91,62.87,83,93,5.32,1595898615
459,Amga,RU,60.9,131.96,64.45,90,94,4.61,1595898615
460,Nandi Hills,KE,0.11,35.18,62.96,93,75,3.36,1595898616
461,Caracollo,PE,-14.92,-70.66,41.54,41,0,3.42,1595898616
462,Tarakeswar,IN,22.89,88.02,84.2,94,75,5.55,1595898616
463,Savonlinna,FI,61.87,28.88,48.2,100,46,2.24,1595898617
464,Gladstone,AU,-23.85,151.25,68.0,37,0,4.7,1595898617
465,Yulara,AU,-25.24,130.99,55.4,43,0,12.75,1595898603
466,Kogon,UZ,39.72,64.55,77.0,36,0,6.93,1595898617
467,Yerbogachën,RU,61.28,108.01,55.33,91,100,11.14,1595898618
468,Teguise,ES,29.06,-13.56,71.6,83,0,18.34,1595898618
469,Bonfim,BR,3.08,-59.95,76.6,84,93,4.83,1595898618
470,Santa Isabel Rio Negro,BR,-0.41,-65.02,74.79,91,30,1.12,1595898618
471,Iquique,CL,-20.22,-70.14,59.0,72,90,5.82,1595898419
472,Borogontsy,RU,62.67,131.17,63.01,96,100,2.48,1595898619
473,‘Ewa Beach,US,21.32,-158.01,87.46,46,20,6.93,1595898574
474,Muskegon,US,43.3,-86.13,74.73,54,20,6.93,1595898322
475,Eberswalde,DE,52.83,13.82,67.46,68,100,9.46,1595898620
476,Letterkenny,IE,54.95,-7.73,49.53,85,35,9.19,1595898620
477,Barão de Melgaço,BR,-16.19,-55.97,78.8,39,39,2.24,1595898620
478,Kaeo,NZ,-35.1,173.78,61.0,3,69,10.0,1595898621
479,Gorom-Gorom,BF,14.44,-0.24,78.26,77,100,15.01,1595898622
480,Forsytheganj,BY,52.63,29.73,63.73,89,0,2.77,1595898622
481,Magaria,NE,13.0,8.91,77.14,64,58,6.24,1595898622
482,Grand Gaube,MU,-20.01,57.66,66.99,81,67,4.0,1595898622
483,Katherine,AU,-14.47,132.27,73.4,18,12,18.34,1595898623
484,Zhezkazgan,KZ,47.8,67.71,68.52,50,35,4.92,1595898623
485,La Providencia,MX,28.72,-111.58,103.1,27,0,13.0,1595898623
486,Iqaluit,CA,63.75,-68.51,57.09,76,75,2.86,1595898565
487,Nyurba,RU,63.28,118.33,56.19,63,100,8.9,1595898623
488,Ketchikan,US,55.34,-131.65,61.88,67,75,13.87,1595898624
489,Estelle,US,29.85,-90.11,78.22,88,75,10.29,1595898624
490,Bara,NG,10.37,10.73,73.15,89,84,6.69,1595898625
491,Loandjili,CG,-4.76,11.86,69.8,94,40,5.17,1595898625
492,The Valley,AI,18.22,-63.06,82.13,78,20,13.87,1595898288
493,Ialibu,PG,-6.28,143.99,63.39,87,100,1.48,1595898625
494,Luján,AR,-34.57,-59.1,41.5,69,100,1.99,1595898626
495,Micheweni,TZ,-4.97,39.83,75.9,80,12,16.42,1595898626
496,Mahon,ES,39.89,4.27,75.2,88,0,4.7,1595898626
497,San Cristobal,VE,7.77,-72.22,65.93,91,22,1.01,1595898627
498,Tvedestrand,NO,58.62,8.93,57.49,87,100,11.41,1595898627
499,Pokhara,NP,28.23,83.98,74.82,77,93,0.49,1595898627
500,Orodara,BF,10.95,-4.93,77.0,94,20,4.7,1595898628
501,Wanxian,CN,30.8,108.39,83.55,73,11,4.03,1595898629
502,Hebron,PS,31.53,35.1,71.01,89,3,1.01,1595898629
503,Santarém,BR,-2.44,-54.71,78.8,88,0,4.7,1595898630
504,Constitución,CL,-35.33,-72.42,45.82,61,0,10.29,1595898630
505,Muroto-misakicho,JP,33.28,134.15,80.6,94,75,5.82,1595898630
506,Svetlaya,RU,46.54,138.33,67.15,83,94,5.97,1595898630
507,Chumikan,RU,54.72,135.31,73.45,62,99,11.01,1595898564
508,Great Falls,US,47.5,-111.3,88.83,19,1,12.75,1595898427
509,Egersund,NO,58.45,6.0,57.34,85,100,7.0,1595898631
510,Neuquén,AR,-38.95,-68.06,39.2,64,0,5.82,1595898631
511,Teacapan,MX,22.55,-105.75,77.34,86,100,5.73,1595898632
512,Rāwah,IQ,34.48,41.91,90.57,14,0,2.35,1595898632
513,Mühlhausen,DE,51.22,10.45,67.01,57,94,7.09,1595898632
514,Imués,CO,1.06,-77.5,49.87,86,0,5.44,1595898632
515,Kilindoni,TZ,-7.91,39.67,76.51,77,52,22.77,1595898633
516,Emilio Carranza,MX,19.97,-96.61,82.71,75,100,5.61,1595898633
517,Imbituba,BR,-28.24,-48.67,66.2,88,81,9.17,1595898633
518,Charlestown,AU,-32.95,151.67,55.65,98,100,1.01,1595898633
519,Mincivan,AZ,39.03,46.72,79.18,49,0,1.7,1595898634
520,Dondo,MZ,-19.61,34.74,66.2,93,40,4.7,1595898634
521,Adet,ET,11.26,37.49,54.63,90,100,4.36,1595898635
522,Havre-St-Pierre,CA,50.23,-63.6,62.6,93,90,8.05,1595898635
523,Canandaigua,US,42.87,-77.29,78.37,60,0,3.0,1595898624
524,Barabinsk,RU,55.36,78.36,57.7,78,0,3.13,1595898636
525,Mopipi,BW,-21.18,24.88,50.02,55,0,13.24,1595898636
526,Panabá,MX,21.28,-88.27,82.2,71,3,9.15,1595898636
527,Abhar,IR,36.15,49.22,69.44,38,0,4.76,1595898637
528,São Geraldo do Araguaia,BR,-6.4,-48.55,73.62,37,0,3.4,1595898638
529,Lakselv,NO,70.05,24.97,59.0,77,90,24.16,1595898639
530,Klyuchi,RU,52.27,79.17,63.5,72,91,9.44,1595898639
531,Cobija,BO,-11.03,-68.77,75.09,67,19,1.1,1595898640
532,Bucerías,MX,20.75,-105.33,81.72,83,90,2.24,1595898641
533,Freetown,SL,8.48,-13.23,75.63,84,100,8.99,1595898641
534,Saint-Leu,RE,-21.15,55.28,60.37,88,97,3.36,1595898642
535,Glendive,US,47.11,-104.71,83.1,30,1,10.29,1595898642
536,Mahon,ES,39.89,4.27,75.2,88,0,4.7,1595898626
537,Necochea,AR,-38.55,-58.74,41.0,93,98,5.01,1595898644
538,Roblin,CA,51.23,-101.36,69.04,77,0,9.69,1595898645
539,Paraúna,BR,-16.95,-50.45,69.82,37,1,1.79,1595898645
540,Koster,ZA,-25.86,26.9,38.23,83,7,3.36,1595898646
541,Santa Rosalía,MX,27.32,-112.28,90.43,41,0,4.21,1595898646
542,College,US,64.86,-147.8,55.94,77,90,4.7,1595898646
543,Shihezi,CN,44.3,86.03,72.5,50,8,4.81,1595898646
544,Porto-Novo,BJ,6.5,2.6,75.2,94,20,11.41,1595898647
545,Yumen,CN,40.28,97.2,78.48,15,5,9.98,1595898647
546,Taree,AU,-31.9,152.47,62.6,55,100,11.41,1595898647
547,Coquimbo,CL,-29.95,-71.34,53.6,87,0,2.24,1595898647
548,Río Gallegos,AR,-51.62,-69.22,33.8,74,26,11.41,1595898522
549,Ellisras,ZA,-23.66,27.74,47.66,91,0,7.27,1595898648
550,Mananara,MG,-16.17,49.77,69.31,83,100,5.64,1595898648
551,Thunder Bay,CA,48.4,-89.32,69.89,60,40,10.29,1595898456
552,Kyzyl-Mazhalyk,RU,51.13,90.6,57.49,83,100,2.39,1595898648
553,Torit,SS,4.41,32.57,67.91,89,93,2.86,1595898649
554,Magdiwang,PH,12.49,122.51,84.13,72,100,6.29,1595898649
555,Luwuk,ID,-0.95,122.79,80.64,72,100,7.23,1595898650
