,city,country,latitude,longitude,temperature,humidity,cloudy,wind speed,date
0,Bandarbeyla,SO,9.49,50.81,79.66,69,0,20.6,1595896684
1,Qaanaaq,GL,77.48,-69.36,44.2,61,0,2.86,1595896640
2,Zyryanka,RU,65.75,150.85,71.28,55,2,10.31,1595896685
3,Arman',RU,59.7,150.17,63.75,71,100,5.21,1595896326
4,Rikitea,PF,-23.12,-134.97,72.09,81,77,13.24,1595896509
5,Berdigestyakh,RU,62.1,126.7,64.96,61,100,7.83,1595896685
6,Oddur,SO,4.12,43.89,73.69,75,87,22.64,1595896348
7,Jamestown,US,42.1,-79.24,74.43,88,1,8.05,1595895996
8,Albany,US,42.6,-73.97,88.23,67,0,5.57,1595896517
9,Samaná,DO,19.21,-69.34,82.4,88,40,13.87,1595896687
10,Atherton,GB,53.52,-2.49,56.03,79,89,8.99,1595896687
11,Hatillo,PR,18.49,-66.83,80.06,100,16,1.99,1595896687
12,Palmas Bellas,PA,9.23,-80.09,77.0,94,100,5.01,1595896687
13,New Norfolk,AU,-42.78,147.06,45.32,93,49,2.95,1595896642
14,Hornepayne,CA,49.21,-84.77,63.3,84,71,5.14,1595896688
15,At-Bashi,KG,41.17,75.81,55.98,60,0,0.09,1595896688
16,Beloha,MG,-25.17,45.05,57.33,89,0,3.47,1595896690
17,Busselton,AU,-33.65,115.33,49.93,98,96,9.78,1595896683
18,Sirte,LY,31.21,16.59,75.52,81,0,6.49,1595896691
19,Yerbogachën,RU,61.28,108.01,55.33,91,100,11.14,1595896691
20,Manta,EC,-0.95,-80.73,71.6,88,90,9.17,1595896597
21,Savonlinna,FI,61.87,28.88,50.0,100,53,1.12,1595896692
22,Nome,US,64.5,-165.41,50.65,87,90,17.22,1595896692
23,Carnarvon,AU,-24.87,113.63,59.0,72,0,12.75,1595896692
24,Bethel,US,41.37,-73.41,81.9,62,1,3.36,1595896675
25,Kapaa,US,22.08,-159.32,82.36,70,20,23.04,1595896277
26,Gijang,KR,35.24,129.21,75.2,88,90,6.93,1595896693
27,Port Shepstone,ZA,-30.74,30.45,58.46,80,0,13.51,1595896693
28,Port Macquarie,AU,-31.43,152.92,65.12,55,72,6.93,1595896693
29,Morondava,MG,-20.28,44.28,64.02,61,1,10.0,1595896693
30,Kumul,CN,42.8,93.45,84.65,24,88,14.34,1595896694
31,Atuona,PF,-9.8,-139.03,79.72,69,0,25.37,1595896694
32,Koróni,GR,36.8,21.95,75.16,73,0,6.38,1595896694
33,Butaritari,KI,3.07,172.79,83.23,79,100,11.05,1595896694
34,Hilo,US,19.73,-155.09,79.27,58,75,6.93,1595896490
35,Yining,CN,29.04,114.56,82.27,83,99,0.92,1595896695
36,Alta Floresta,BR,-9.88,-56.09,78.8,54,0,1.12,1595896695
37,Yangjiang,CN,21.85,111.97,87.17,72,18,8.7,1595896695
38,Isangel,VU,-19.55,169.27,82.4,69,40,11.41,1595896682
39,Saint-Philippe,RE,-21.36,55.77,60.98,88,79,4.7,1595896696
40,Yellowknife,CA,62.46,-114.35,63.18,93,75,11.41,1595896560
41,Sambava,MG,-14.27,50.17,71.87,83,100,12.26,1595896696
42,Adrar,MR,20.5,-10.07,92.48,35,4,21.45,1595896696
43,Bluff,NZ,-46.6,168.33,45.0,85,100,1.99,1595896662
44,Port Alfred,ZA,-33.59,26.89,54.32,76,0,8.19,1595896525
45,Cape Town,ZA,-33.93,18.42,53.89,93,0,3.36,1595896697
46,Faya,SA,18.39,42.45,63.5,93,40,4.7,1595896697
47,Coquimbo,CL,-29.95,-71.34,53.6,87,0,2.24,1595896697
48,Synya,RU,65.37,58.04,51.53,78,100,4.88,1595896698
49,Gonder,ET,12.6,37.47,55.18,93,100,1.07,1595896698
50,Mount Gambier,AU,-37.83,140.77,48.2,93,100,1.12,1595896698
51,Bisert',RU,56.86,59.05,51.24,86,70,2.06,1595896698
52,Tselinnoye,RU,53.08,85.67,60.03,85,99,4.74,1595896699
53,Kaka,TM,37.35,59.61,79.68,22,0,3.33,1595896699
54,Bredasdorp,ZA,-34.53,20.04,37.4,93,0,1.45,1595896531
55,Hesla,IN,24.07,85.88,83.79,69,100,2.8,1595896700
56,Paphos,CY,34.77,32.42,69.96,78,0,8.05,1595896700
57,La Libertad,EC,-2.23,-80.9,69.8,88,90,8.05,1595896565
58,Katobu,ID,-4.94,122.53,81.57,66,80,6.49,1595896700
59,Pisco,PE,-13.7,-76.22,60.89,82,20,12.75,1595896461
60,Ushuaia,AR,-54.8,-68.3,33.8,80,40,26.4,1595896660
61,Henties Bay,NA,-22.12,14.28,57.99,80,0,6.62,1595896701
62,Morón,AR,-34.65,-58.62,44.15,50,100,8.05,1595896701
63,Flinders,AU,-34.58,150.86,60.15,89,98,8.99,1595896702
64,Turinskaya Sloboda,RU,57.62,64.39,51.22,88,92,3.6,1595896702
65,Thompson,CA,55.74,-97.86,60.8,77,75,9.17,1595896702
66,Hasaki,JP,35.73,140.83,84.07,79,75,12.75,1595896703
67,Rameshki,RU,57.34,36.05,57.65,97,0,3.09,1595896703
68,Lebu,CL,-37.62,-73.65,45.28,76,5,13.15,1595896703
69,Vaini,TO,-21.2,-175.2,73.4,88,75,14.99,1595896703
70,Carutapera,BR,-1.2,-46.02,75.6,87,0,5.88,1595896703
71,Kudahuvadhoo,MV,2.67,72.89,82.6,76,76,12.1,1595896704
72,Aalen,DE,48.84,10.09,66.9,64,0,7.02,1595896704
73,Zwedru,LR,6.07,-8.13,69.55,96,100,3.06,1595896704
74,Hamilton,US,39.18,-84.53,72.52,83,40,5.82,1595896705
75,George Town,MY,5.41,100.34,79.34,94,20,3.36,1595896682
76,Lompoc,US,34.64,-120.46,65.68,68,0,16.11,1595896492
77,Manjakandriana,MG,-18.92,47.8,57.2,82,75,5.82,1595896705
78,East London,ZA,-33.02,27.91,55.96,74,0,9.28,1595896705
79,Brownsville,US,25.9,-97.5,85.6,84,20,13.87,1595896681
80,Punta Arenas,CL,-53.15,-70.92,35.29,47,49,14.99,1595896682
81,Iqaluit,CA,63.75,-68.51,57.09,76,75,5.88,1595896706
82,Agüimes,ES,27.91,-15.45,73.22,73,75,27.51,1595896706
83,San Cristobal,VE,7.77,-72.22,84.2,66,40,9.17,1595896706
84,Mpika,ZM,-11.83,31.45,52.61,78,0,9.75,1595896707
85,Necochea,AR,-38.55,-58.74,42.01,92,100,11.99,1595896707
86,Avarua,CK,-21.21,-159.78,71.6,83,65,5.82,1595896707
87,Nanortalik,GL,60.14,-45.24,46.24,95,100,5.93,1595896707
88,Alekseyevsk,RU,57.84,108.35,65.77,77,100,1.7,1595896707
89,Tasiilaq,GL,65.61,-37.64,42.8,87,92,3.36,1595896708
90,Coyhaique,CL,-45.58,-72.07,37.4,74,20,3.36,1595896708
91,Hermanus,ZA,-34.42,19.23,43.0,93,0,5.95,1595896708
92,Phonhong,LA,18.5,102.42,78.8,100,75,4.7,1595896708
93,Airai,TL,-8.93,125.41,65.16,60,100,4.12,1595896708
94,Tessalit,ML,20.2,1.01,84.97,47,36,5.37,1595896709
95,Cherskiy,RU,68.75,161.3,46.33,55,72,10.76,1595896652
96,Katangli,RU,51.71,143.23,67.62,66,4,5.73,1595896709
97,San Patricio,MX,19.22,-104.7,87.8,66,40,5.82,1595896710
98,Ambatondrazaka,MG,-17.83,48.42,59.34,90,100,0.92,1595896710
99,Tuktoyaktuk,CA,69.45,-133.04,64.4,68,75,17.22,1595896710
100,Puerto Ayora,EC,-0.74,-90.35,67.93,78,40,16.11,1595896620
101,Qaqortoq,GL,60.72,-46.03,50.0,81,75,4.7,1595896710
102,Turochak,RU,52.26,87.12,59.58,87,78,1.61,1595896711
103,Bonavista,CA,48.65,-53.11,55.51,94,100,4.18,1595896711
104,Husavik,IS,66.04,-17.34,48.2,66,90,6.93,1595896711
105,Khasan,RU,42.43,130.64,65.84,94,100,6.64,1595896711
106,Castro,BR,-24.79,-50.01,59.99,73,100,3.33,1595896712
107,Katherine,AU,-14.47,132.27,69.8,21,12,14.99,1595896712
108,Havøysund,NO,71.0,24.66,64.4,63,0,18.34,1595896712
109,Hobart,AU,-42.88,147.33,48.04,93,40,9.17,1595896712
110,Diu,IN,20.71,70.98,82.4,83,55,8.46,1595896712
111,Lakki,PK,32.61,70.91,96.17,38,0,6.76,1595896713
112,Poum,NC,-20.23,164.02,74.8,78,99,19.37,1595896713
113,Campos Altos,BR,-19.7,-46.17,61.77,69,45,1.23,1595896713
114,Chui,UY,-33.7,-53.46,48.27,73,100,7.11,1595896713
115,Bambous Virieux,MU,-20.34,57.76,66.58,88,40,3.36,1595896567
116,Smoky Lake,CA,54.12,-112.47,76.84,73,0,7.25,1595896714
117,Ribeira Grande,PT,38.52,-28.7,73.51,89,6,4.36,1595896714
118,Ponta Delgada,PT,37.73,-25.67,69.8,94,20,2.24,1595896597
119,Klaksvík,FO,62.23,-6.59,46.4,93,99,13.87,1595896596
120,Mombasa,KE,-4.05,39.66,74.17,84,15,16.49,1595896715
121,Vanimo,PG,-2.67,141.3,85.75,62,71,4.88,1595896715
122,Arraial do Cabo,BR,-22.97,-42.03,71.6,83,20,11.41,1595896677
123,Durban,ZA,-29.86,31.03,60.89,87,75,1.12,1595896715
124,Hithadhoo,MV,-0.6,73.08,81.91,79,100,10.87,1595896277
125,Grand Gaube,MU,-20.01,57.66,66.99,81,67,4.0,1595896716
126,Kallithea,GR,37.95,23.7,79.52,44,20,6.93,1595896716
127,Lālmohan,BD,22.34,90.74,84.16,84,100,9.98,1595896716
128,Pierre,US,44.37,-100.35,90.07,22,1,16.11,1595896659
129,Barranca,PE,-10.75,-77.77,58.1,91,88,6.76,1595896673
130,Pingzhuang,CN,42.04,119.29,76.78,59,76,11.5,1595896648
131,Lae,PG,-6.72,146.98,80.6,74,75,11.41,1595896717
132,Dunedin,NZ,-45.87,170.5,46.99,79,100,3.0,1595896717
133,Nekhayevskiy,RU,50.41,41.76,60.01,67,76,7.9,1595896717
134,Deniliquin,AU,-35.53,144.97,57.0,72,0,18.01,1595896717
135,Awjilah,LY,29.11,21.29,77.13,50,0,10.98,1595896718
136,Ponta do Sol,PT,32.67,-17.1,68.4,64,20,16.11,1595896718
137,Talara,PE,-4.58,-81.27,63.23,86,2,15.26,1595896659
138,Ancud,CL,-41.87,-73.82,40.05,100,49,1.12,1595896719
139,Garoowe,SO,8.41,48.48,77.49,65,54,20.71,1595896719
140,Valmiera,LV,57.54,25.43,61.0,96,100,1.01,1595896719
141,Kahului,US,20.89,-156.47,81.66,49,1,23.04,1595896719
142,Mahébourg,MU,-20.41,57.7,66.2,88,40,3.36,1595896660
143,Nadym,RU,65.53,72.52,49.75,69,13,14.34,1595896720
144,Mahina,PF,-17.51,-149.49,84.2,66,40,11.41,1595896720
145,Hailey,US,43.52,-114.32,86.0,22,40,6.93,1595896720
146,Upernavik,GL,72.79,-56.15,44.04,90,5,4.03,1595896720
147,Ahipara,NZ,-35.17,173.17,60.3,65,75,10.54,1595896720
148,Jaru,BR,-10.44,-62.47,77.61,45,100,0.83,1595896721
149,Saint Paul Harbor,US,57.79,-152.41,62.6,67,40,6.93,1595896721
150,Saskylakh,RU,71.92,114.08,52.77,63,43,12.03,1595896721
151,Luganville,VU,-15.53,167.17,78.8,88,75,9.17,1595896721
152,Santiago,CL,-33.46,-70.65,47.84,61,0,3.36,1595896629
153,Am Timan,TD,11.03,20.28,74.62,91,100,5.21,1595896722
154,La Orilla,MX,17.98,-102.23,82.31,73,100,1.28,1595896722
155,Tual,ID,-5.67,132.75,78.85,81,100,21.56,1595896722
156,Santa Cruz,MA,30.42,-9.6,71.6,83,4,3.36,1595896455
157,Mar del Plata,AR,-38.0,-57.56,41.7,86,75,9.17,1595896467
158,Cabo San Lucas,MX,22.89,-109.91,89.28,52,75,13.87,1595896723
159,Barrow,US,71.29,-156.79,39.2,80,90,26.4,1595896585
160,Mataura,NZ,-46.19,168.86,45.0,85,100,1.99,1595896641
161,Pontianak,ID,-0.03,109.33,78.94,84,80,4.85,1595896724
162,Teknāf,BD,20.86,92.31,82.76,83,96,4.81,1595896724
163,Baoding,CN,38.85,115.49,82.02,60,72,2.42,1595896724
164,Longyearbyen,SJ,78.22,15.64,64.4,55,81,5.82,1595896724
165,Maningrida,AU,-12.07,134.27,76.5,37,99,14.81,1595896568
166,Ruyigi Province,BI,-3.45,30.32,56.75,64,0,3.24,1595896725
167,Ust'-Omchug,RU,61.15,149.63,76.42,32,73,1.43,1595896725
168,Lüderitz,NA,-26.65,15.16,55.4,87,0,1.12,1595896725
169,Sisimiut,GL,66.94,-53.67,44.56,94,100,10.4,1595896598
170,Fuerte Olimpo,PY,-21.04,-57.87,73.8,43,0,4.85,1595896726
171,Tilichiki,RU,60.47,166.1,66.65,51,0,9.19,1595896726
172,Jalu,LY,29.03,21.55,76.93,50,0,10.74,1595896574
173,Fare,PF,-16.7,-151.02,79.59,79,98,14.76,1595896726
174,Mossamedes,AO,-15.2,12.15,65.32,71,0,3.67,1595896569
175,Kilindoni,TZ,-7.91,39.67,76.51,77,52,22.77,1595896728
176,Vágur,FO,61.47,-6.81,49.77,87,92,17.11,1595896728
177,Praia,CV,14.92,-23.51,78.8,74,75,5.82,1595896728
178,Fortuna,US,40.6,-124.16,64.27,69,84,1.99,1595896730
179,São Gabriel da Cachoeira,BR,-0.13,-67.09,74.12,94,37,0.47,1595896537
180,Urgut,UZ,39.4,67.24,71.6,56,0,2.24,1595896731
181,Copiapó,CL,-27.37,-70.33,51.8,87,0,1.97,1595896731
182,Rio Grande,BR,-32.03,-52.1,53.01,94,100,5.23,1595896599
183,Paraná,AR,-31.73,-60.52,53.67,41,100,1.99,1595896648
184,Tarko-Sale,RU,64.92,77.78,53.01,87,96,1.01,1595896732
185,Hong Kong,HK,22.29,114.16,87.49,62,94,5.99,1595896622
186,Igaraçu do Tietê,BR,-22.51,-48.56,74.32,50,100,2.24,1595896732
187,Banda Aceh,ID,5.56,95.32,79.75,82,100,15.97,1595896733
188,Haines Junction,CA,60.75,-137.51,57.06,59,100,4.07,1595896733
189,Prince Rupert,CA,54.32,-130.32,59.0,82,75,11.41,1595896733
190,Kibaha,TZ,-6.77,38.92,71.6,94,40,4.7,1595896733
191,Brigantine,US,39.41,-74.36,83.46,58,1,5.82,1595896734
192,Nizhneudinsk,RU,54.91,99.03,66.49,60,23,0.65,1595896734
193,Deputatsky,RU,69.3,139.9,46.56,69,99,5.37,1595896734
194,Carballo,ES,43.21,-8.69,65.32,93,90,2.24,1595896734
195,St. George's,GD,12.06,-61.75,82.4,83,20,10.58,1595896647
196,Tretten,NO,61.31,10.3,48.99,95,62,8.99,1595896735
197,Iracoubo,GF,5.48,-53.2,78.84,81,38,2.62,1595896735
198,Brae,GB,60.4,-1.35,55.4,93,100,8.05,1595896735
199,Nikolskoye,RU,59.7,30.79,58.3,77,1,6.71,1595896656
200,Clyde River,CA,70.47,-68.59,41.0,100,90,13.87,1595896736
201,Luanda,AO,-8.84,13.23,69.8,94,65,3.36,1595896662
202,Riverside,US,33.73,-116.05,109.69,9,1,3.36,1595896465
203,Narsaq,GL,60.92,-46.05,50.0,81,75,4.7,1595896657
204,Vostok,RU,46.49,135.88,77.14,61,5,4.16,1595896737
205,Pala,TD,9.36,14.9,71.37,96,84,4.09,1595896737
206,Bubaque,GW,11.28,-15.83,79.88,83,100,18.84,1595896737
207,Iwaki,JP,37.05,140.88,75.2,97,100,2.68,1595896738
208,Pangnirtung,CA,66.15,-65.71,59.4,48,100,8.23,1595896738
209,Provideniya,RU,64.38,-173.3,51.8,93,90,8.95,1595896738
210,Esim,GH,4.87,-2.24,74.25,87,86,9.33,1595896738
211,Hattiesburg,US,31.33,-89.29,79.54,78,1,3.36,1595896589
212,Turukhansk,RU,65.82,87.98,52.77,61,100,18.92,1595896740
213,Luancheng,CN,37.88,114.65,71.6,88,4,6.71,1595896741
214,Ségou,ML,13.43,-6.22,78.91,79,100,5.35,1595896742
215,Dikson,RU,73.51,80.55,40.32,82,52,13.0,1595896742
216,Faanui,PF,-16.48,-151.75,79.14,79,100,14.54,1595896742
217,Vestmannaeyjar,IS,63.44,-20.27,51.44,72,0,19.1,1595896744
218,The Valley,AI,18.22,-63.06,81.46,78,20,13.87,1595896490
219,Sai Buri,TH,6.7,101.62,79.77,84,100,6.22,1595896745
220,Jiwani,PK,25.05,61.74,83.5,81,11,8.37,1595896745
221,Baiyin,CN,36.56,104.21,68.0,52,26,4.47,1595896745
222,Darhan,MN,49.49,105.92,67.93,60,0,3.4,1595896745
223,Mayo,US,38.89,-76.51,86.09,52,1,4.7,1595896746
224,Sangar,RU,63.92,127.47,64.81,47,90,10.74,1595896746
225,Annau,TM,37.89,58.52,87.8,35,0,16.11,1595896746
226,Bindi,SL,9.92,-11.45,69.94,97,100,4.27,1595896746
227,Yar-Sale,RU,66.83,70.83,52.05,65,93,14.03,1595896746
228,Pacific Grove,US,36.62,-121.92,64.26,68,1,12.75,1595896747
229,Latung,PH,5.5,120.88,83.23,77,100,8.52,1595896747
230,Paoua,CF,7.24,16.44,68.7,98,57,3.6,1595896747
231,Chernyshevskiy,RU,63.01,112.47,54.27,60,100,10.42,1595896747
232,Farmington,US,36.73,-108.22,79.21,42,75,17.22,1595896747
233,Codrington,AU,-38.27,141.97,53.76,77,17,4.34,1595896545
234,Baykit,RU,61.67,96.37,60.03,69,95,1.74,1595896748
235,Shimoda,JP,34.67,138.95,77.32,100,75,17.22,1595896748
236,Sault Ste. Marie,CA,46.52,-84.33,69.71,64,1,11.41,1595896652
237,Saint-Paul,RE,-21.01,55.27,60.57,72,98,4.7,1595896749
238,Marzuq,YE,14.4,46.47,72.23,74,100,3.53,1595896560
239,Russell,US,32.35,-85.2,85.51,74,1,2.86,1595896750
240,Tiksi,RU,71.69,128.87,39.0,87,100,16.71,1595896750
241,Ambilobe,MG,-13.2,49.05,68.18,84,20,1.16,1595896594
242,Sémbé,CG,1.65,14.58,69.8,87,0,2.37,1595896647
243,Rendsburg,DE,54.3,9.67,62.29,72,90,4.7,1595896751
244,Viļāni,LV,56.55,26.92,63.68,85,100,4.7,1595896751
245,Konstantinovka,RU,49.62,127.98,85.69,47,0,6.85,1595896752
246,Chokurdakh,RU,70.63,147.92,47.95,58,100,2.98,1595896752
247,Verkhniy Ufaley,RU,56.06,60.23,50.61,91,0,3.83,1595896753
248,Alice Springs,AU,-23.7,133.88,51.8,53,0,1.12,1595896753
249,Krasnosel'kup,RU,65.7,82.47,51.66,73,37,14.74,1595896506
250,Raudeberg,NO,61.99,5.14,58.35,87,100,4.7,1595896753
251,Bikin,RU,46.82,134.26,83.57,62,0,1.7,1595896754
252,Souillac,MU,-20.52,57.52,66.2,88,40,3.36,1595896277
253,Nsunga,TZ,-1.14,31.39,69.8,77,92,1.12,1595896755
254,Sainte-Adèle,CA,45.95,-74.13,77.56,83,40,3.36,1595896755
255,Maragogi,BR,-9.01,-35.22,74.1,80,87,11.7,1595896755
256,Poshekhon'ye,RU,58.5,39.14,57.13,95,1,4.88,1595896756
257,Pemba,MZ,-12.97,40.52,71.29,83,40,12.75,1595896756
258,São Filipe,CV,14.9,-24.5,75.99,78,100,8.72,1595896695
259,Marawi,PH,8.0,124.29,79.0,84,58,4.0,1595896757
260,Korla,CN,41.76,86.15,75.0,68,0,4.0,1595896757
261,Mahenge,TZ,-8.68,36.72,60.73,79,93,1.43,1595896758
262,Le Moule,GP,16.33,-61.35,80.6,88,75,5.82,1595896758
263,Ulaangom,MN,49.98,92.07,60.44,73,100,6.89,1595896758
264,Nantucket,US,41.28,-70.1,73.67,88,1,10.29,1595896759
265,Quelimane,MZ,-17.88,36.89,64.2,93,40,3.51,1595896759
266,Buckeye,US,33.37,-112.58,109.38,11,0,3.36,1595896604
267,Santa Catarina de Tepehuanes,MX,25.35,-105.73,68.88,70,100,6.93,1595896760
268,Krasnyy Yar,RU,46.53,48.35,77.0,29,0,8.95,1595896760
269,Muriwai Beach,NZ,-36.82,174.45,60.03,73,92,3.0,1595896760
270,Pushkinskiye Gory,RU,57.02,28.91,61.23,77,100,3.51,1595896760
271,Maumere,ID,-8.62,122.21,78.42,64,56,8.14,1595896760
272,Pevek,RU,69.7,170.31,36.3,83,0,10.56,1595896518
273,Hammerfest,NO,70.66,23.68,64.4,63,14,18.34,1595896761
274,Laguna,US,38.42,-121.42,93.63,24,1,10.29,1595896540
275,Ulladulla,AU,-35.35,150.47,55.38,100,75,17.22,1595896761
276,Jagüey Grande,CU,22.53,-81.13,82.4,83,20,10.29,1595896761
277,Hunsūr,IN,12.31,76.29,67.75,94,100,5.23,1595896762
278,Karratha,AU,-20.74,116.85,70.36,25,31,16.55,1595896567
279,Polovinnoye,RU,54.79,65.99,54.88,91,2,8.05,1595896762
280,Bathsheba,BB,13.22,-59.52,82.4,78,20,14.99,1595896701
281,Srednekolymsk,RU,67.45,153.68,58.39,57,82,15.55,1595896763
282,Piet Retief,ZA,-27.01,30.81,46.63,92,100,3.02,1595896763
283,Gopāmau,IN,27.55,80.28,88.18,65,99,2.26,1595896763
284,Geraldton,AU,-28.77,114.6,59.0,100,90,8.05,1595896614
285,Sevnica,SI,46.01,15.32,63.36,93,0,3.22,1595896763
286,Muros,ES,42.78,-9.06,70.0,85,17,3.51,1595896764
287,Asmara,ER,15.33,38.93,55.26,100,100,5.97,1595896765
288,Arrondissement de Millau,FR,44.08,2.92,72.45,60,22,14.99,1595896765
289,Harwich,GB,51.94,1.28,55.65,80,0,5.99,1595896479
290,Kharp,RU,66.8,65.81,51.21,67,100,3.58,1595896765
291,Mae Chan,TH,20.15,99.85,75.2,100,40,3.36,1595896494
292,Chhāpar,IN,27.82,74.4,87.66,60,10,14.07,1595896766
293,Keti Bandar,PK,24.14,67.45,85.35,77,45,19.28,1595896766
294,Manicoré,BR,-5.81,-61.3,78.8,83,0,0.94,1595896766
295,Northam,GB,51.03,-4.22,58.33,90,0,5.99,1595896767
296,Cockburn Town,TC,21.46,-71.14,82.33,76,0,19.04,1595896767
297,Santa Maria,BR,-29.68,-53.81,60.8,87,100,3.2,1595896600
298,Khovd,MN,48.01,91.64,58.96,73,100,0.72,1595896621
299,Kenai,US,60.55,-151.26,63.0,72,1,13.87,1595896767
300,Port Elizabeth,ZA,-33.92,25.57,48.2,87,0,2.24,1595896768
301,Chapais,CA,49.78,-74.85,68.0,94,90,4.7,1595896768
302,Norrtälje,SE,59.76,18.7,59.63,90,5,4.23,1595896768
303,Tautira,PF,-17.73,-149.15,84.2,66,40,11.41,1595896768
304,Barra dos Coqueiros,BR,-10.91,-37.04,77.0,69,20,10.29,1595896768
305,Muzhi,RU,65.37,64.67,51.49,71,97,4.9,1595896769
306,Basoko,CD,1.24,23.62,71.35,90,100,2.93,1595896769
307,Morant Bay,JM,17.88,-76.41,84.11,74,20,14.99,1595896769
308,Porto-Novo,BJ,6.5,2.6,75.2,94,20,11.41,1595896625
309,Sterling,US,39.01,-77.43,86.45,58,20,10.29,1595896769
310,Tondano,ID,1.3,124.91,82.4,78,20,1.12,1595896770
311,Dalvik,IS,65.97,-18.53,48.2,66,90,6.93,1595896770
312,Touros,BR,-5.2,-35.46,71.6,94,20,3.36,1595896771
313,Margate,GB,51.38,1.39,61.99,91,23,3.0,1595896771
314,Udachny,RU,66.42,112.4,42.8,87,90,4.47,1595896723
315,Kaitangata,NZ,-46.28,169.85,46.99,69,100,7.0,1595896771
316,Svetlaya,RU,46.54,138.33,67.98,81,87,5.35,1595896771
317,Yaan,NG,7.38,8.57,72.05,97,100,6.93,1595896772
318,Jieshi,CN,22.81,115.83,86.05,73,2,6.96,1595896772
319,Treinta y Tres,UY,-33.23,-54.38,47.7,73,100,9.71,1595896773
320,Maxixe,MZ,-23.86,35.35,63.21,76,57,9.55,1595896773
321,Shīeli,KZ,44.17,66.75,73.26,43,13,5.68,1595896773
322,Aksarka,RU,66.56,67.8,50.63,71,100,11.97,1595896774
323,Norman Wells,CA,65.28,-126.83,68.0,52,75,11.41,1595896774
324,Burns Lake,CA,54.23,-125.75,73.56,37,100,11.1,1595896774
325,Al Bardīyah,LY,31.76,25.09,73.0,90,0,12.82,1595896774
326,Jojoima,SL,7.88,-10.79,70.75,95,99,2.44,1595896775
327,Waipawa,NZ,-41.41,175.52,55.33,58,90,17.22,1595896775
328,Nabire,ID,-3.37,135.48,81.45,79,99,3.89,1595896775
329,Byron Bay,AU,-28.65,153.62,62.78,48,0,12.75,1595896549
330,Tūkrah,LY,32.53,20.58,75.36,80,37,10.45,1595896775
331,Grand-Bourg,GP,15.88,-61.31,80.6,88,75,5.82,1595896776
332,Kieta,PG,-6.22,155.63,85.06,64,63,3.11,1595896703
333,Shalya,RU,57.25,58.73,51.85,85,52,1.48,1595896776
334,Soligalich,RU,59.08,42.29,55.04,91,0,0.94,1595896776
335,Agadez,NE,19.75,10.25,85.19,14,75,9.24,1595896776
336,Vredendal,ZA,-31.67,18.5,60.03,34,0,7.96,1595896777
337,Mountain Home,US,43.13,-115.69,91.4,16,90,11.41,1595896777
338,Arrondissement de Saumur,FR,47.33,-0.25,66.2,82,90,10.29,1595896777
339,Evensk,RU,61.95,159.23,55.13,84,85,8.55,1595896777
340,Marsh Harbour,BS,26.54,-77.06,82.63,75,43,8.93,1595896518
341,Cap Malheureux,MU,-19.98,57.61,66.99,81,14,5.01,1595896778
342,Marfino,RU,55.7,37.38,61.38,93,40,2.71,1595896778
343,Molchanovo,RU,57.58,83.77,56.82,90,0,1.3,1595896778
344,Aasiaat,GL,68.71,-52.87,38.25,91,86,1.41,1595896658
345,Naze,JP,28.37,129.48,86.92,79,40,12.75,1595896780
346,Santa Rosa,PH,14.31,121.11,80.82,88,100,0.31,1595896548
347,Salta,AR,-24.79,-65.41,57.2,35,0,9.17,1595896766
348,Bom Jesus,BR,-9.07,-44.36,70.27,58,100,3.62,1595896780
349,Bon Air,US,37.52,-77.56,88.16,58,1,3.36,1595896781
350,Zasosna,RU,50.63,38.4,61.93,68,16,8.72,1595896781
351,Romitan,UZ,39.93,64.38,77.0,36,0,6.93,1595896781
352,Le Pradet,FR,43.11,6.02,70.75,94,0,1.12,1595896781
353,Smithers,CA,54.78,-127.17,69.8,43,75,10.29,1595896781
354,Makkaveyevo,RU,51.75,113.95,66.2,93,40,6.71,1595896782
355,Gien,FR,47.69,2.63,68.0,65,11,9.53,1595896782
356,Golubitskaya,RU,45.32,37.28,68.5,94,40,4.47,1595896782
357,Hualmay,PE,-11.1,-77.61,59.81,84,67,9.04,1595896782
358,Southbridge,US,42.08,-72.03,83.88,69,96,5.59,1595896782
359,Madison,US,34.73,-86.57,81.88,70,20,9.17,1595896783
360,Aquiraz,BR,-3.9,-38.39,80.6,69,0,14.99,1595896497
361,Kavieng,PG,-2.57,150.8,84.0,73,36,10.18,1595896783
362,Ryki,PL,51.63,21.93,63.99,10,100,5.1,1595896783
363,Lorengau,PG,-2.02,147.27,83.1,73,53,2.19,1595896742
364,Nemuro,JP,43.32,145.57,60.8,87,75,4.7,1595896706
365,Amapá,BR,1.0,-52.0,73.17,84,0,2.15,1595896784
366,Yablonovo,RU,50.85,37.36,62.6,59,90,6.71,1595896784
367,Port Hardy,CA,50.7,-127.42,66.2,72,20,16.11,1595896784
368,Shelburne,CA,44.08,-80.2,76.03,78,40,11.41,1595896785
369,Saint George,US,37.1,-113.58,101.64,13,1,10.29,1595896562
370,Río Gallegos,AR,-51.62,-69.22,33.8,74,26,11.41,1595896786
371,Quatre Cocos,MU,-20.21,57.76,66.61,88,40,3.36,1595896786
372,Chulym,RU,55.1,80.96,57.58,87,33,1.86,1595896787
373,Bourail,NC,-21.57,165.48,77.45,60,100,8.86,1595896788
374,Ulkan,RU,57.24,107.32,69.73,67,100,1.3,1595896788
375,Yuancheng,CN,36.65,107.79,78.08,52,11,9.78,1595896788
376,Agua Verde,MX,22.9,-106.05,74.41,88,90,4.7,1595896788
377,Khatanga,RU,71.97,102.5,52.36,58,0,5.7,1595896686
378,Laje,BR,-10.18,-40.97,66.61,83,98,12.17,1595896789
379,Leningradskiy,RU,69.38,178.42,38.08,76,22,13.42,1595896581
380,Katsuura,JP,35.13,140.3,81.09,94,75,16.11,1595896789
381,Actopan,MX,20.27,-98.93,65.19,76,100,5.12,1595896762
382,Żurrieq,MT,35.83,14.47,76.23,78,0,4.7,1595896790
383,Tazovsky,RU,67.47,78.7,50.31,67,86,12.53,1595896791
384,Letnica,PL,51.9,15.33,67.46,36,100,7.7,1595896791
385,Ilulissat,GL,69.22,-51.1,42.8,87,88,3.36,1595896791
386,Grindavik,IS,63.84,-22.43,46.4,87,40,13.87,1595896792
387,Corsicana,US,32.1,-96.47,87.48,52,1,5.82,1595896792
388,Esperance,AU,-33.87,121.9,53.6,93,47,11.41,1595896792
389,Kamina,CD,-8.74,24.99,57.79,48,0,2.62,1595896792
390,Antalaha,MG,-14.9,50.28,71.82,81,100,8.9,1595896792
391,Fort Nelson,CA,58.81,-122.7,68.0,49,75,11.41,1595896793
392,Kalety,PL,50.56,18.89,63.61,100,100,3.36,1595896793
393,Pindwāra,IN,24.8,73.07,80.31,84,34,4.5,1595896793
394,Almaznyy,RU,48.04,40.05,75.2,44,20,13.42,1595896794
395,Muborak,UZ,39.26,65.15,79.79,21,0,9.17,1595896794
396,Woodland,US,38.68,-121.77,99.32,22,1,12.75,1595896756
397,Omboué,GA,-1.57,9.26,73.9,84,97,6.87,1595896712
398,Torbay,CA,47.67,-52.73,57.54,100,90,6.93,1595896795
399,Mandalgovi,MN,45.76,106.27,66.06,46,0,14.2,1595896795
400,Hobyo,SO,5.35,48.53,79.5,74,13,22.28,1595896796
401,Kollam,IN,8.88,76.6,82.4,83,40,4.7,1595896797
402,Alofi,NU,-19.06,-169.92,78.8,69,40,17.22,1595896553
403,Øksfjord,NO,70.24,22.35,61.43,72,3,8.05,1595896797
404,Pineville,US,31.32,-92.43,81.88,69,75,4.7,1595896797
405,Bida,NG,9.08,6.02,72.72,91,100,1.54,1595896797
406,Drakhtik,AM,40.56,45.24,60.58,76,0,3.27,1595896798
407,Aketi,CD,2.74,23.78,69.8,90,100,1.77,1595896798
408,Magole,TZ,-6.37,37.37,66.2,88,20,2.04,1595896798
409,Sørland,NO,67.67,12.69,54.75,90,100,6.64,1595896798
410,Nerchinskiy Zavod,RU,51.31,119.61,79.2,53,90,9.93,1595896799
411,Roald,NO,62.58,6.13,58.73,82,100,6.93,1595896799
412,Le Port,RE,-20.94,55.29,60.67,72,96,4.7,1595896799
413,Praia da Vitória,PT,38.73,-27.07,73.4,88,4,4.43,1595896800
414,Serov,RU,59.6,60.58,56.39,66,98,2.3,1595896801
415,Mokhsogollokh,RU,61.47,128.92,62.69,98,100,2.89,1595896801
416,Shakawe,BW,-18.37,21.85,46.0,50,0,5.7,1595896801
417,Teteven,BG,42.92,24.27,64.22,77,20,4.7,1595896801
418,Puerto Quijarro,BO,-17.78,-57.77,74.52,42,0,1.97,1595896802
419,Paraúna,BR,-16.95,-50.45,70.5,35,0,2.73,1595896539
420,Mizque,BO,-17.94,-65.34,59.31,56,0,3.02,1595896802
421,Jianning,CN,27.83,113.15,78.8,94,75,4.47,1595896802
422,Ostrovnoy,RU,68.05,39.51,55.71,86,20,1.16,1595896802
423,Honiara,SB,-9.43,159.95,87.8,70,40,11.41,1595896755
424,North Charleston,US,32.89,-80.01,83.95,66,20,9.17,1595896803
425,Saldanha,ZA,-33.01,17.94,46.4,70,0,5.82,1595896519
426,Lagoa,PT,39.05,-27.98,73.13,88,0,5.17,1595896803
427,Sioux Lookout,CA,50.1,-91.92,64.4,82,75,5.82,1595896551
428,Goderich,CA,43.75,-81.72,74.95,84,88,12.55,1595896804
429,Dickson,US,36.08,-87.39,79.7,83,1,4.21,1595896572
430,Tura,IN,25.52,90.22,75.96,94,100,4.03,1595896683
431,Lavrentiya,RU,65.58,-171.0,48.9,80,88,14.94,1595896804
432,Damāvand,IR,35.72,52.06,85.3,13,0,4.7,1595896805
433,Lima,PE,-12.04,-77.03,59.0,87,90,9.17,1595896683
434,Ostashkov,RU,57.15,33.11,57.79,95,0,3.2,1595896805
435,Sandwick,GB,60.0,-1.25,55.4,93,100,8.05,1595896805
436,Aklavik,CA,68.22,-135.01,69.8,46,75,13.87,1595896511
437,Menongue,AO,-14.66,17.69,47.7,53,0,4.56,1595896806
438,Bara,NG,10.37,10.73,73.8,89,100,5.79,1595896806
439,Belyy Yar,RU,53.6,91.39,57.2,100,100,2.24,1595896807
440,Chardara,KZ,41.25,67.97,74.66,34,0,8.72,1595896807
441,Chenzhou,CN,25.8,113.03,84.15,77,66,2.53,1595896807
442,Tongliao,CN,43.61,122.27,82.45,51,58,11.81,1595896807
443,Egvekinot,RU,66.32,-179.17,51.33,71,100,6.4,1595896773
444,Bathurst,AU,-33.42,149.58,51.28,89,100,3.0,1595896808
445,Hofn,IS,64.25,-15.21,52.03,68,100,8.3,1595896808
446,Sovetskiy,RU,61.36,63.58,52.21,69,80,2.39,1595896808
447,Jurm,AF,36.86,70.83,66.88,40,0,0.63,1595896808
448,Kushima,JP,31.46,131.23,79.75,88,40,3.36,1595896808
449,Sangerhausen,DE,51.47,11.3,67.66,65,89,5.03,1595896809
450,Namatanai,PG,-3.67,152.43,85.42,66,8,6.44,1595896809
451,Chaozhou,CN,23.67,116.64,87.8,70,20,2.24,1595896809
452,Solnechnyy,RU,50.72,136.63,78.69,56,45,3.42,1595896810
453,Manggar,ID,-2.88,108.27,82.27,76,50,15.37,1595896810
454,Huarmey,PE,-10.07,-78.15,60.04,86,87,7.83,1595896810
455,Leninskoye,RU,47.94,132.62,79.03,77,46,4.81,1595896810
456,Tsimmerbude,RU,54.67,20.13,55.4,100,75,2.24,1595896810
457,Mezen',RU,65.85,44.24,54.77,88,0,4.09,1595896811
458,San Quintín,MX,30.48,-115.95,70.2,75,0,16.4,1595896811
459,Loukhi,RU,66.08,33.04,59.43,70,100,3.42,1595896811
460,Kjøpsvik,NO,68.1,16.37,55.71,93,7,4.7,1595896811
461,Quzhou,CN,28.96,118.87,84.63,76,100,2.57,1595896812
462,Labuhan,ID,-6.88,112.21,78.19,73,96,11.36,1595896812
463,Tingo María,PE,-9.29,-76.01,70.21,81,15,1.52,1595896812
464,Kaeo,NZ,-35.1,173.78,62.01,3,28,7.0,1595896740
465,Kangaatsiaq,GL,68.31,-53.46,43.23,91,91,4.83,1595896812
466,Kibray,UZ,41.39,69.46,75.2,47,0,6.93,1595896813
467,Severo-Kuril'sk,RU,50.68,156.12,55.27,82,45,17.07,1595896813
468,Pochutla,MX,15.74,-96.47,82.0,84,100,2.53,1595896579
469,Stromness,GB,58.97,-3.3,53.24,93,100,18.34,1595896814
470,Matamoros,MX,25.53,-103.25,72.16,88,90,8.55,1595896529
471,Ballarat,AU,-37.57,143.85,48.42,95,77,6.67,1595896814
472,Dingle,PH,11.0,122.67,81.3,83,100,3.91,1595896727
473,Sliven,BG,42.69,26.33,68.0,82,40,4.7,1595896815
474,Sept-Îles,CA,50.2,-66.38,62.87,100,75,6.15,1595896712
475,Olafsvik,IS,64.89,-23.71,48.25,73,15,7.58,1595896722
476,Fort William,GB,56.82,-5.11,52.0,93,100,8.63,1595896816
477,Lagos,NG,6.58,3.75,77.0,88,20,3.36,1595896593
478,Villa Bruzual,VE,9.33,-69.12,74.28,96,100,0.31,1595896816
479,Tursunzoda,TJ,38.51,68.23,75.2,47,0,4.47,1595896817
480,Ruteng,ID,-8.61,120.47,67.15,74,38,3.83,1595896817
481,Yicheng,CN,31.37,119.87,73.99,99,100,1.01,1595896817
482,Jacobina,BR,-11.18,-40.52,64.58,92,100,6.46,1595896818
483,Champerico,GT,14.3,-91.92,77.0,100,90,4.7,1595896819
484,Saint-François,FR,46.42,3.91,73.4,56,0,3.36,1595896819
485,Vardø,NO,70.37,31.11,55.4,82,0,5.82,1595896820
486,Nānākuli,US,21.39,-158.15,86.63,49,40,12.75,1595896605
487,Sacama,EC,-3.9,-79.27,48.97,100,14,3.96,1595896821
488,Kasongo,CD,-4.45,26.67,69.15,39,1,1.86,1595896821
489,Mt. Pleasant,US,32.79,-79.86,83.84,79,1,8.05,1595896760
490,Zorritos,PE,-3.68,-80.68,69.55,77,0,7.14,1595896821
491,Puerto Escondido,MX,15.85,-97.07,80.6,69,90,3.36,1595896739
492,Hirara,JP,24.8,125.28,86.74,74,40,10.29,1595896822
493,Yangi Marg`ilon,UZ,40.43,71.72,73.4,56,57,6.93,1595896822
494,Bengkulu,ID,-3.8,102.27,77.27,74,100,4.85,1595896822
495,Rawson,AR,-43.3,-65.1,41.94,64,0,17.74,1595896822
496,Cabedelo,BR,-6.98,-34.83,73.4,94,75,9.17,1595896596
497,Emba,KZ,48.83,58.14,60.53,77,0,11.34,1595896823
498,Sitka,US,57.05,-135.33,60.8,72,75,5.82,1595896668
499,Los Llanos de Aridane,ES,28.66,-17.92,73.4,73,90,18.34,1595896823
500,Kungurtug,RU,50.6,97.52,61.83,49,97,1.07,1595896823
501,Capinzal,BR,-27.34,-51.61,59.86,91,8,3.29,1595896824
502,Ofakim,IL,31.31,34.62,80.01,78,0,3.89,1595896824
503,Kralendijk,BQ,12.15,-68.27,82.4,78,20,10.29,1595896824
504,Berezovyy,RU,51.67,135.7,83.8,52,70,2.55,1595896824
505,Wilson,US,36.15,-86.28,81.73,78,1,3.36,1595896824
506,Mingora,PK,34.78,72.36,74.46,70,50,5.64,1595896825
507,Ola,RU,59.58,151.28,60.08,82,89,5.19,1595896825
508,Safi,MA,32.3,-9.24,70.3,88,0,11.88,1595896825
509,Anadyr,RU,64.75,177.48,69.8,64,20,8.95,1595896825
510,Sumy,UA,50.92,34.8,63.03,78,58,6.62,1595896825
511,Soe,ID,-9.86,124.28,70.21,67,82,8.16,1595896826
512,Kinel’-Cherkassy,RU,53.47,51.47,56.32,89,0,5.03,1595896826
513,San Sebastian,ES,43.31,-1.98,71.65,83,90,4.7,1595896770
514,Meybod,IR,32.25,54.02,82.4,15,0,4.7,1595896567
515,Fortaleza,BR,-3.72,-38.52,80.35,69,0,14.99,1595896610
516,Sulphur Springs,US,33.14,-95.6,88.97,49,40,8.05,1595896827
517,Wonthaggi,AU,-38.6,145.59,54.3,83,100,12.53,1595896827
518,Anchorage,US,61.22,-149.9,66.6,63,1,6.93,1595896827
519,Biaora,IN,23.87,76.92,80.6,79,75,8.7,1595896828
520,Chul'man,RU,56.85,124.91,75.54,67,0,7.83,1595896828
521,Rockport,US,28.02,-97.05,84.47,79,1,13.87,1595896829
522,Chipinge,ZW,-20.19,32.62,48.24,98,39,4.74,1595896829
523,Būkān,IR,36.52,46.21,70.74,32,0,0.51,1595896829
524,Port Augusta,AU,-32.5,137.77,46.29,87,78,3.24,1595896829
525,Ngunguru,NZ,-35.62,174.5,62.01,3,100,7.0,1595896829
526,Barabai,ID,-2.58,115.38,81.63,76,99,0.45,1595896830
527,Ironton,US,38.54,-82.68,80.58,100,90,4.7,1595896830
528,Pontes e Lacerda,BR,-15.23,-59.34,73.56,45,0,1.74,1595896830
529,Ixtapa,MX,20.7,-105.2,82.2,78,90,1.32,1595896830
530,Shellbrook,CA,53.22,-106.4,78.8,50,20,11.41,1595896831
531,Altamira,BR,-3.2,-52.21,75.36,61,0,2.98,1595896546
532,Cidreira,BR,-30.18,-50.21,60.49,96,90,6.51,1595896803
533,Liaocheng,CN,36.44,115.96,81.52,67,0,5.97,1595896831
534,Mizdah,LY,31.45,12.98,68.56,67,0,5.28,1595896831
535,Tramandaí,BR,-29.98,-50.13,60.91,95,66,4.56,1595896832
536,Mehamn,NO,71.04,27.85,60.26,69,0,9.51,1595896832
537,Paamiut,GL,61.99,-49.67,46.58,84,100,1.23,1595896578
538,Imeni Poliny Osipenko,RU,52.42,136.49,76.15,66,81,7.74,1595896797
539,Tinos,GR,37.54,25.16,79.41,54,0,13.87,1595896833
540,Gubskaya,RU,44.32,40.64,65.71,61,61,4.07,1595896833
541,Miguel Hidalgo,MX,19.42,-99.2,70.74,43,75,9.17,1595896751
542,Dalbandin,PK,28.89,64.41,81.25,57,20,3.89,1595896834
543,Pathānkot,IN,32.28,75.65,81.3,74,1,5.06,1595896834
544,Xai-Xai,MZ,-25.05,33.64,62.83,76,64,6.71,1595896835
545,El Colomo,MX,19.05,-104.25,87.8,66,40,5.82,1595896835
546,Halifax,CA,44.65,-63.57,65.73,81,100,3.56,1595896723
547,Paracelis,PH,17.27,121.47,81.91,78,99,1.72,1595896835
548,Lafia,NG,8.48,8.52,72.55,96,100,3.83,1595896836
549,Vila Velha,BR,-20.33,-40.29,68.0,88,0,3.36,1595896836
550,San Policarpo,PH,12.18,125.51,78.84,86,100,5.12,1595896836
551,Cuamba,MZ,-14.8,36.54,62.19,79,99,3.69,1595896836
552,Eyl,SO,7.98,49.82,81.16,65,15,15.35,1595896836
553,Gijón,ES,43.54,-5.66,70.39,80,100,2.66,1595896837
554,Vila,PT,42.03,-8.16,66.04,93,90,3.36,1595896837
555,Wichita Falls,US,33.91,-98.49,93.13,46,1,13.87,1595896547
556,Kuril'sk,RU,45.23,147.88,56.88,77,100,1.28,1595896837
557,Leshukonskoye,RU,64.9,45.76,57.97,94,58,2.84,1595896837
558,Beringovskiy,RU,63.05,179.32,66.09,61,0,9.17,1595896838
559,Marsá Maţrūḩ,EG,31.35,27.25,76.46,85,0,9.93,1595896838
560,Casablanca,MA,33.59,-7.62,71.22,100,40,8.05,1595896838
561,Kholodnyy,RU,62.72,147.95,74.05,35,100,7.92,1595896838
562,Asău,RO,46.43,26.4,59.0,91,0,4.43,1595896593
563,Mujiayingzi,CN,42.12,118.78,74.98,62,35,9.93,1595896839
564,Bakchar,RU,57.02,82.07,56.61,89,0,1.81,1595896839
565,Talnakh,RU,69.49,88.4,55.4,54,0,6.71,1595896839
566,Boguchany,RU,58.38,97.45,61.93,76,0,3.36,1595896839
567,Togur,RU,58.36,82.83,56.35,80,0,3.0,1595896840
568,Omsukchan,RU,62.53,155.8,77.34,38,14,8.43,1595896840
569,Arlit,NE,18.74,7.39,93.2,41,35,11.68,1595896840
570,Angoche,MZ,-16.23,39.91,70.38,79,59,10.87,1595896840
571,Sayyan,YE,15.17,44.32,57.4,79,100,3.44,1595896840
572,Baicheng,CN,45.62,122.82,79.41,62,62,9.17,1595896841
573,Villarrica,PY,-25.75,-56.43,68.32,81,100,5.44,1595896841
574,Salalah,OM,17.02,54.09,78.8,100,75,5.82,1595896841
575,Kota Kinabalu,MY,5.97,116.07,80.2,83,20,4.7,1595896841
576,Bol,TD,13.46,14.71,82.71,68,44,8.9,1595896842
577,Kailua,US,21.4,-157.74,83.7,55,20,12.75,1595896842
578,Qui Nhon,VN,13.77,109.23,85.86,63,99,3.0,1595896585
